{
    "type": "FeatureCollection",
    "name": "Stations",
    "crs": { "type": "name", "properties": { "name": "urn:ogc:def:crs:OGC:1.3:CRS84" } },
    "features": [
    { "type": "Feature", "properties": { "ogc_fid": 1, "name": "Acton Town" }, "geometry": { "type": "Point", "coordinates": [ -0.278126, 51.5025 ] } },
    { "type": "Feature", "properties": { "ogc_fid": 2, "name": "Acton Central" }, "geometry": { "type": "Point", "coordinates": [ -0.263033174, 51.50883531 ] } },
    { "type": "Feature", "properties": { "ogc_fid": 3, "name": "Acton Central" }, "geometry": { "type": "Point", "coordinates": [ -0.262879534, 51.50856013 ] } },
    { "type": "Feature", "properties": { "ogc_fid": 4, "name": "Aldgate" }, "geometry": { "type": "Point", "coordinates": [ -0.07537, 51.51394 ] } },
    { "type": "Feature", "properties": { "ogc_fid": 5, "name": "Aldgate East" }, "geometry": { "type": "Point", "coordinates": [ -0.07178, 51.51514 ] } },
    { "type": "Feature", "properties": { "ogc_fid": 6, "name": "Alperton" }, "geometry": { "type": "Point", "coordinates": [ -0.30061, 51.54097 ] } },
    { "type": "Feature", "properties": { "ogc_fid": 7, "name": "Amersham" }, "geometry": { "type": "Point", "coordinates": [ -0.60732, 51.67435 ] } },
    { "type": "Feature", "properties": { "ogc_fid": 8, "name": "Angel" }, "geometry": { "type": "Point", "coordinates": [ -0.10579, 51.53253 ] } },
    { "type": "Feature", "properties": { "ogc_fid": 9, "name": "Archway" }, "geometry": { "type": "Point", "coordinates": [ -0.13474, 51.56536 ] } },
    { "type": "Feature", "properties": { "ogc_fid": 10, "name": "Arnos Grove" }, "geometry": { "type": "Point", "coordinates": [ -0.13355, 51.61625 ] } },
    { "type": "Feature", "properties": { "ogc_fid": 11, "name": "Arsenal" }, "geometry": { "type": "Point", "coordinates": [ -0.10561, 51.55847 ] } },
    { "type": "Feature", "properties": { "ogc_fid": 12, "name": "Baker Street" }, "geometry": { "type": "Point", "coordinates": [ -0.15704, 51.52265 ] } },
    { "type": "Feature", "properties": { "ogc_fid": 13, "name": "Baker Street" }, "geometry": { "type": "Point", "coordinates": [ -0.15708, 51.522236 ] } },
    { "type": "Feature", "properties": { "ogc_fid": 14, "name": "Balham" }, "geometry": { "type": "Point", "coordinates": [ -0.152945844, 51.44344113 ] } },
    { "type": "Feature", "properties": { "ogc_fid": 15, "name": "Bank" }, "geometry": { "type": "Point", "coordinates": [ -0.08905843, 51.5134047 ] } },
    { "type": "Feature", "properties": { "ogc_fid": 16, "name": "Barbican" }, "geometry": { "type": "Point", "coordinates": [ -0.097758, 51.520865 ] } },
    { "type": "Feature", "properties": { "ogc_fid": 17, "name": "Barking" }, "geometry": { "type": "Point", "coordinates": [ 0.08018, 51.54079 ] } },
    { "type": "Feature", "properties": { "ogc_fid": 18, "name": "Barkingside" }, "geometry": { "type": "Point", "coordinates": [ 0.08854, 51.58543 ] } },
    { "type": "Feature", "properties": { "ogc_fid": 19, "name": "Barons Court" }, "geometry": { "type": "Point", "coordinates": [ -0.21434, 51.490281 ] } },
    { "type": "Feature", "properties": { "ogc_fid": 20, "name": "Battersea Power Station" }, "geometry": { "type": "Point", "coordinates": [ -0.142, 51.4795 ] } },
    { "type": "Feature", "properties": { "ogc_fid": 21, "name": "Bayswater" }, "geometry": { "type": "Point", "coordinates": [ -0.187569, 51.51224 ] } },
    { "type": "Feature", "properties": { "ogc_fid": 22, "name": "Becontree" }, "geometry": { "type": "Point", "coordinates": [ 0.1262, 51.54029 ] } },
    { "type": "Feature", "properties": { "ogc_fid": 23, "name": "Belsize Park" }, "geometry": { "type": "Point", "coordinates": [ -0.16465, 51.55036 ] } },
    { "type": "Feature", "properties": { "ogc_fid": 24, "name": "Bermondsey" }, "geometry": { "type": "Point", "coordinates": [ -0.0635, 51.49813 ] } },
    { "type": "Feature", "properties": { "ogc_fid": 25, "name": "Bethnal Green" }, "geometry": { "type": "Point", "coordinates": [ -0.05504, 51.52718 ] } },
    { "type": "Feature", "properties": { "ogc_fid": 26, "name": "Blackfriars" }, "geometry": { "type": "Point", "coordinates": [ -0.1041905, 51.5114403 ] } },
    { "type": "Feature", "properties": { "ogc_fid": 27, "name": "Blackhorse Road" }, "geometry": { "type": "Point", "coordinates": [ -0.04104, 51.58698 ] } },
    { "type": "Feature", "properties": { "ogc_fid": 28, "name": "Bond Street" }, "geometry": { "type": "Point", "coordinates": [ -0.14897, 51.51461 ] } },
    { "type": "Feature", "properties": { "ogc_fid": 29, "name": "Borough" }, "geometry": { "type": "Point", "coordinates": [ -0.09446, 51.50095 ] } },
    { "type": "Feature", "properties": { "ogc_fid": 30, "name": "Boston Manor" }, "geometry": { "type": "Point", "coordinates": [ -0.325573, 51.495371 ] } },
    { "type": "Feature", "properties": { "ogc_fid": 31, "name": "Bounds Green" }, "geometry": { "type": "Point", "coordinates": [ -0.12418, 51.607 ] } },
    { "type": "Feature", "properties": { "ogc_fid": 32, "name": "Bow Road" }, "geometry": { "type": "Point", "coordinates": [ -0.02482, 51.52709 ] } },
    { "type": "Feature", "properties": { "ogc_fid": 33, "name": "Brent Cross" }, "geometry": { "type": "Point", "coordinates": [ -0.21414, 51.57693 ] } },
    { "type": "Feature", "properties": { "ogc_fid": 34, "name": "Brixton" }, "geometry": { "type": "Point", "coordinates": [ -0.115421, 51.46239 ] } },
    { "type": "Feature", "properties": { "ogc_fid": 35, "name": "Bromley-by-Bow" }, "geometry": { "type": "Point", "coordinates": [ -0.01282, 51.52466 ] } },
    { "type": "Feature", "properties": { "ogc_fid": 36, "name": "Brondesbury" }, "geometry": { "type": "Point", "coordinates": [ -0.20297, 51.54505 ] } },
    { "type": "Feature", "properties": { "ogc_fid": 37, "name": "Brondesbury Park" }, "geometry": { "type": "Point", "coordinates": [ -0.21093, 51.5406 ] } },
    { "type": "Feature", "properties": { "ogc_fid": 38, "name": "Buckhurst Hill" }, "geometry": { "type": "Point", "coordinates": [ 0.04705, 51.62611 ] } },
    { "type": "Feature", "properties": { "ogc_fid": 39, "name": "Burnt Oak" }, "geometry": { "type": "Point", "coordinates": [ -0.26427, 51.603 ] } },
    { "type": "Feature", "properties": { "ogc_fid": 40, "name": "Caledonian Road" }, "geometry": { "type": "Point", "coordinates": [ -0.11802, 51.5485 ] } },
    { "type": "Feature", "properties": { "ogc_fid": 41, "name": "Caledonian Road & Barnesbury" }, "geometry": { "type": "Point", "coordinates": [ -0.11544, 51.54326 ] } },
    { "type": "Feature", "properties": { "ogc_fid": 42, "name": "Camden Road" }, "geometry": { "type": "Point", "coordinates": [ -0.13981, 51.54192 ] } },
    { "type": "Feature", "properties": { "ogc_fid": 43, "name": "Camden Town" }, "geometry": { "type": "Point", "coordinates": [ -0.14316, 51.5393 ] } },
    { "type": "Feature", "properties": { "ogc_fid": 44, "name": "Canary Wharf" }, "geometry": { "type": "Point", "coordinates": [ -0.01987, 51.50362 ] } },
    { "type": "Feature", "properties": { "ogc_fid": 45, "name": "Cannon Street" }, "geometry": { "type": "Point", "coordinates": [ -0.09047, 51.51141 ] } },
    { "type": "Feature", "properties": { "ogc_fid": 46, "name": "Canonbury" }, "geometry": { "type": "Point", "coordinates": [ -0.09632, 51.54822 ] } },
    { "type": "Feature", "properties": { "ogc_fid": 47, "name": "Canons Park" }, "geometry": { "type": "Point", "coordinates": [ -0.29487, 51.6081 ] } },
    { "type": "Feature", "properties": { "ogc_fid": 48, "name": "Chalfont & Latimer" }, "geometry": { "type": "Point", "coordinates": [ -0.56053, 51.66822 ] } },
    { "type": "Feature", "properties": { "ogc_fid": 49, "name": "Chalk Farm" }, "geometry": { "type": "Point", "coordinates": [ -0.15384, 51.5439 ] } },
    { "type": "Feature", "properties": { "ogc_fid": 50, "name": "Chancery Lane" }, "geometry": { "type": "Point", "coordinates": [ -0.11115, 51.51836 ] } },
    { "type": "Feature", "properties": { "ogc_fid": 51, "name": "Charing Cross" }, "geometry": { "type": "Point", "coordinates": [ -0.122963, 51.507108 ] } },
    { "type": "Feature", "properties": { "ogc_fid": 52, "name": "Chesham" }, "geometry": { "type": "Point", "coordinates": [ -0.610986426, 51.70522733 ] } },
    { "type": "Feature", "properties": { "ogc_fid": 53, "name": "Chigwell" }, "geometry": { "type": "Point", "coordinates": [ 0.07511, 51.61795 ] } },
    { "type": "Feature", "properties": { "ogc_fid": 54, "name": "Chiswick Park" }, "geometry": { "type": "Point", "coordinates": [ -0.26866, 51.49466 ] } },
    { "type": "Feature", "properties": { "ogc_fid": 55, "name": "Chorleywood" }, "geometry": { "type": "Point", "coordinates": [ -0.518373353, 51.65429872 ] } },
    { "type": "Feature", "properties": { "ogc_fid": 56, "name": "City Thameslink" }, "geometry": { "type": "Point", "coordinates": [ -0.10335, 51.51416 ] } },
    { "type": "Feature", "properties": { "ogc_fid": 57, "name": "Clapham Common" }, "geometry": { "type": "Point", "coordinates": [ -0.13802, 51.46156 ] } },
    { "type": "Feature", "properties": { "ogc_fid": 58, "name": "Clapham North" }, "geometry": { "type": "Point", "coordinates": [ -0.1295, 51.46522 ] } },
    { "type": "Feature", "properties": { "ogc_fid": 59, "name": "Clapham South" }, "geometry": { "type": "Point", "coordinates": [ -0.147562148, 51.45292257 ] } },
    { "type": "Feature", "properties": { "ogc_fid": 60, "name": "Cockfosters" }, "geometry": { "type": "Point", "coordinates": [ -0.14811, 51.65117 ] } },
    { "type": "Feature", "properties": { "ogc_fid": 61, "name": "Colindale" }, "geometry": { "type": "Point", "coordinates": [ -0.24996, 51.59556 ] } },
    { "type": "Feature", "properties": { "ogc_fid": 62, "name": "Colliers Wood" }, "geometry": { "type": "Point", "coordinates": [ -0.17800983, 51.41823649 ] } },
    { "type": "Feature", "properties": { "ogc_fid": 63, "name": "Covent Garden" }, "geometry": { "type": "Point", "coordinates": [ -0.12427, 51.51308 ] } },
    { "type": "Feature", "properties": { "ogc_fid": 64, "name": "Croxley" }, "geometry": { "type": "Point", "coordinates": [ -0.441479115, 51.64733268 ] } },
    { "type": "Feature", "properties": { "ogc_fid": 65, "name": "Dagenham East" }, "geometry": { "type": "Point", "coordinates": [ 0.16439, 51.54396 ] } },
    { "type": "Feature", "properties": { "ogc_fid": 66, "name": "Dagenham Heathway" }, "geometry": { "type": "Point", "coordinates": [ 0.14543, 51.54173 ] } },
    { "type": "Feature", "properties": { "ogc_fid": 67, "name": "Dalston Kingsland" }, "geometry": { "type": "Point", "coordinates": [ -0.07879, 51.54832 ] } },
    { "type": "Feature", "properties": { "ogc_fid": 68, "name": "Debden" }, "geometry": { "type": "Point", "coordinates": [ 0.08364, 51.64535 ] } },
    { "type": "Feature", "properties": { "ogc_fid": 69, "name": "Dollis Hill" }, "geometry": { "type": "Point", "coordinates": [ -0.23884, 51.5525 ] } },
    { "type": "Feature", "properties": { "ogc_fid": 70, "name": "Ealing Broadway" }, "geometry": { "type": "Point", "coordinates": [ -0.30118, 51.51482 ] } },
    { "type": "Feature", "properties": { "ogc_fid": 71, "name": "Ealing Common" }, "geometry": { "type": "Point", "coordinates": [ -0.28825, 51.50997 ] } },
    { "type": "Feature", "properties": { "ogc_fid": 72, "name": "Earl's Court" }, "geometry": { "type": "Point", "coordinates": [ -0.193906, 51.491521 ] } },
    { "type": "Feature", "properties": { "ogc_fid": 73, "name": "East Acton" }, "geometry": { "type": "Point", "coordinates": [ -0.24827, 51.51753 ] } },
    { "type": "Feature", "properties": { "ogc_fid": 74, "name": "East Finchley" }, "geometry": { "type": "Point", "coordinates": [ -0.16495632312818, 51.587297470548698 ] } },
    { "type": "Feature", "properties": { "ogc_fid": 75, "name": "East Ham" }, "geometry": { "type": "Point", "coordinates": [ 0.0526, 51.53931 ] } },
    { "type": "Feature", "properties": { "ogc_fid": 76, "name": "East Putney" }, "geometry": { "type": "Point", "coordinates": [ -0.211138, 51.459015 ] } },
    { "type": "Feature", "properties": { "ogc_fid": 77, "name": "Eastcote" }, "geometry": { "type": "Point", "coordinates": [ -0.39629, 51.57676 ] } },
    { "type": "Feature", "properties": { "ogc_fid": 78, "name": "Edgware" }, "geometry": { "type": "Point", "coordinates": [ -0.27515, 51.61385 ] } },
    { "type": "Feature", "properties": { "ogc_fid": 79, "name": "Edgware Road (Bakerloo Line)" }, "geometry": { "type": "Point", "coordinates": [ -0.169068, 51.51956 ] } },
    { "type": "Feature", "properties": { "ogc_fid": 80, "name": "Edgware Road (Circle Line)" }, "geometry": { "type": "Point", "coordinates": [ -0.166986, 51.520195 ] } },
    { "type": "Feature", "properties": { "ogc_fid": 81, "name": "Elephant & Castle" }, "geometry": { "type": "Point", "coordinates": [ -0.10047, 51.49467 ] } },
    { "type": "Feature", "properties": { "ogc_fid": 82, "name": "Elm Park" }, "geometry": { "type": "Point", "coordinates": [ 0.19779, 51.54969 ] } },
    { "type": "Feature", "properties": { "ogc_fid": 83, "name": "Embankment" }, "geometry": { "type": "Point", "coordinates": [ -0.12195, 51.50717 ] } },
    { "type": "Feature", "properties": { "ogc_fid": 84, "name": "Epping" }, "geometry": { "type": "Point", "coordinates": [ 0.11495, 51.69365 ] } },
    { "type": "Feature", "properties": { "ogc_fid": 85, "name": "Euston" }, "geometry": { "type": "Point", "coordinates": [ -0.13303, 51.52774 ] } },
    { "type": "Feature", "properties": { "ogc_fid": 86, "name": "Euston Square" }, "geometry": { "type": "Point", "coordinates": [ -0.1357, 51.52584 ] } },
    { "type": "Feature", "properties": { "ogc_fid": 87, "name": "Fairlop" }, "geometry": { "type": "Point", "coordinates": [ 0.09125, 51.59634 ] } },
    { "type": "Feature", "properties": { "ogc_fid": 88, "name": "Farringdon" }, "geometry": { "type": "Point", "coordinates": [ -0.105126482, 51.520362948 ] } },
    { "type": "Feature", "properties": { "ogc_fid": 89, "name": "Farringdon" }, "geometry": { "type": "Point", "coordinates": [ -0.104789, 51.520086 ] } },
    { "type": "Feature", "properties": { "ogc_fid": 90, "name": "Finchley Central" }, "geometry": { "type": "Point", "coordinates": [ -0.1924, 51.60102 ] } },
    { "type": "Feature", "properties": { "ogc_fid": 91, "name": "Finchley Road" }, "geometry": { "type": "Point", "coordinates": [ -0.179867, 51.546701 ] } },
    { "type": "Feature", "properties": { "ogc_fid": 92, "name": "Finchley Road and Frognal" }, "geometry": { "type": "Point", "coordinates": [ -0.18412, 51.54994 ] } },
    { "type": "Feature", "properties": { "ogc_fid": 93, "name": "Finsbury Park" }, "geometry": { "type": "Point", "coordinates": [ -0.10543, 51.56498 ] } },
    { "type": "Feature", "properties": { "ogc_fid": 94, "name": "Fulham Broadway" }, "geometry": { "type": "Point", "coordinates": [ -0.19488, 51.48033 ] } },
    { "type": "Feature", "properties": { "ogc_fid": 95, "name": "Gants Hill" }, "geometry": { "type": "Point", "coordinates": [ 0.06637, 51.57649 ] } },
    { "type": "Feature", "properties": { "ogc_fid": 96, "name": "Gloucester Road" }, "geometry": { "type": "Point", "coordinates": [ -0.17295341, 51.49408266 ] } },
    { "type": "Feature", "properties": { "ogc_fid": 97, "name": "Golders Green" }, "geometry": { "type": "Point", "coordinates": [ -0.1941, 51.57249 ] } },
    { "type": "Feature", "properties": { "ogc_fid": 98, "name": "Goldhawk Road" }, "geometry": { "type": "Point", "coordinates": [ -0.226776, 51.501248 ] } },
    { "type": "Feature", "properties": { "ogc_fid": 99, "name": "Goodge Street" }, "geometry": { "type": "Point", "coordinates": [ -0.13441, 51.5206 ] } },
    { "type": "Feature", "properties": { "ogc_fid": 100, "name": "Gospel Oak" }, "geometry": { "type": "Point", "coordinates": [ -0.15228, 51.55597 ] } },
    { "type": "Feature", "properties": { "ogc_fid": 101, "name": "Grange Hill" }, "geometry": { "type": "Point", "coordinates": [ 0.09258, 51.61326 ] } },
    { "type": "Feature", "properties": { "ogc_fid": 102, "name": "Great Portland Street" }, "geometry": { "type": "Point", "coordinates": [ -0.14397, 51.52391 ] } },
    { "type": "Feature", "properties": { "ogc_fid": 103, "name": "Greenford" }, "geometry": { "type": "Point", "coordinates": [ -0.345903, 51.542346 ] } },
    { "type": "Feature", "properties": { "ogc_fid": 104, "name": "Gunnersbury" }, "geometry": { "type": "Point", "coordinates": [ -0.275554312, 51.49126844 ] } },
    { "type": "Feature", "properties": { "ogc_fid": 105, "name": "Green Park" }, "geometry": { "type": "Point", "coordinates": [ -0.14276, 51.50674 ] } },
    { "type": "Feature", "properties": { "ogc_fid": 106, "name": "Hackney Central" }, "geometry": { "type": "Point", "coordinates": [ -0.05784, 51.54689 ] } },
    { "type": "Feature", "properties": { "ogc_fid": 107, "name": "Hackney Wick" }, "geometry": { "type": "Point", "coordinates": [ -0.02474, 51.54348 ] } },
    { "type": "Feature", "properties": { "ogc_fid": 108, "name": "Hainault" }, "geometry": { "type": "Point", "coordinates": [ 0.09332, 51.60288 ] } },
    { "type": "Feature", "properties": { "ogc_fid": 109, "name": "Hammersmith (Dist&Picc Line)" }, "geometry": { "type": "Point", "coordinates": [ -0.222825, 51.492328 ] } },
    { "type": "Feature", "properties": { "ogc_fid": 110, "name": "Hammersmith (H&C Line)" }, "geometry": { "type": "Point", "coordinates": [ -0.225964953, 51.494190748 ] } },
    { "type": "Feature", "properties": { "ogc_fid": 111, "name": "Hampstead" }, "geometry": { "type": "Point", "coordinates": [ -0.17851, 51.55645 ] } },
    { "type": "Feature", "properties": { "ogc_fid": 112, "name": "Hampstead Heath" }, "geometry": { "type": "Point", "coordinates": [ -0.16656, 51.55533 ] } },
    { "type": "Feature", "properties": { "ogc_fid": 113, "name": "Hanger Lane" }, "geometry": { "type": "Point", "coordinates": [ -0.2929, 51.53 ] } },
    { "type": "Feature", "properties": { "ogc_fid": 114, "name": "Harlesden" }, "geometry": { "type": "Point", "coordinates": [ -0.257622488, 51.53628278 ] } },
    { "type": "Feature", "properties": { "ogc_fid": 115, "name": "Harrow & Wealdstone" }, "geometry": { "type": "Point", "coordinates": [ -0.334725352, 51.59205973 ] } },
    { "type": "Feature", "properties": { "ogc_fid": 116, "name": "Harrow-on-the-Hill" }, "geometry": { "type": "Point", "coordinates": [ -0.337052, 51.579335 ] } },
    { "type": "Feature", "properties": { "ogc_fid": 117, "name": "Hatton Cross" }, "geometry": { "type": "Point", "coordinates": [ -0.423035, 51.466988 ] } },
    { "type": "Feature", "properties": { "ogc_fid": 118, "name": "Heathrow Terminals 1-2-3" }, "geometry": { "type": "Point", "coordinates": [ -0.4527438, 51.4712899 ] } },
    { "type": "Feature", "properties": { "ogc_fid": 119, "name": "Heathrow Terminal 4" }, "geometry": { "type": "Point", "coordinates": [ -0.44689658, 51.4594777 ] } },
    { "type": "Feature", "properties": { "ogc_fid": 120, "name": "Hendon Central" }, "geometry": { "type": "Point", "coordinates": [ -0.22653, 51.58346 ] } },
    { "type": "Feature", "properties": { "ogc_fid": 121, "name": "High Barnet" }, "geometry": { "type": "Point", "coordinates": [ -0.194138165994553, 51.650651903175103 ] } },
    { "type": "Feature", "properties": { "ogc_fid": 122, "name": "High Street Kensington" }, "geometry": { "type": "Point", "coordinates": [ -0.192351664, 51.5003459144 ] } },
    { "type": "Feature", "properties": { "ogc_fid": 123, "name": "Highbury & Islington" }, "geometry": { "type": "Point", "coordinates": [ -0.10752, 51.54502 ] } },
    { "type": "Feature", "properties": { "ogc_fid": 124, "name": "Highgate" }, "geometry": { "type": "Point", "coordinates": [ -0.14553, 51.57722 ] } },
    { "type": "Feature", "properties": { "ogc_fid": 125, "name": "Hillingdon" }, "geometry": { "type": "Point", "coordinates": [ -0.45062, 51.55364 ] } },
    { "type": "Feature", "properties": { "ogc_fid": 126, "name": "Holborn" }, "geometry": { "type": "Point", "coordinates": [ -0.12055, 51.51711 ] } },
    { "type": "Feature", "properties": { "ogc_fid": 127, "name": "Holland Park" }, "geometry": { "type": "Point", "coordinates": [ -0.20553, 51.50722 ] } },
    { "type": "Feature", "properties": { "ogc_fid": 128, "name": "Holloway Road" }, "geometry": { "type": "Point", "coordinates": [ -0.11278, 51.5529 ] } },
    { "type": "Feature", "properties": { "ogc_fid": 129, "name": "Homerton" }, "geometry": { "type": "Point", "coordinates": [ -0.04323, 51.5471 ] } },
    { "type": "Feature", "properties": { "ogc_fid": 130, "name": "Hornchurch" }, "geometry": { "type": "Point", "coordinates": [ 0.21797, 51.55387 ] } },
    { "type": "Feature", "properties": { "ogc_fid": 131, "name": "Hounslow Central" }, "geometry": { "type": "Point", "coordinates": [ -0.365853, 51.47129 ] } },
    { "type": "Feature", "properties": { "ogc_fid": 132, "name": "Hounslow East" }, "geometry": { "type": "Point", "coordinates": [ -0.356, 51.47354 ] } },
    { "type": "Feature", "properties": { "ogc_fid": 133, "name": "Hounslow West" }, "geometry": { "type": "Point", "coordinates": [ -0.386471, 51.473689 ] } },
    { "type": "Feature", "properties": { "ogc_fid": 134, "name": "Hyde Park Corner" }, "geometry": { "type": "Point", "coordinates": [ -0.15278, 51.50313 ] } },
    { "type": "Feature", "properties": { "ogc_fid": 135, "name": "Ickenham" }, "geometry": { "type": "Point", "coordinates": [ -0.44257, 51.56147 ] } },
    { "type": "Feature", "properties": { "ogc_fid": 136, "name": "Kennington" }, "geometry": { "type": "Point", "coordinates": [ -0.10587, 51.48823 ] } },
    { "type": "Feature", "properties": { "ogc_fid": 137, "name": "Kensal Green" }, "geometry": { "type": "Point", "coordinates": [ -0.224253545, 51.53060655 ] } },
    { "type": "Feature", "properties": { "ogc_fid": 138, "name": "Kensal Rise" }, "geometry": { "type": "Point", "coordinates": [ -0.22145, 51.53387 ] } },
    { "type": "Feature", "properties": { "ogc_fid": 139, "name": "Kensington (Olympia)" }, "geometry": { "type": "Point", "coordinates": [ -0.20931, 51.49675 ] } },
    { "type": "Feature", "properties": { "ogc_fid": 140, "name": "Kentish Town" }, "geometry": { "type": "Point", "coordinates": [ -0.14067, 51.55046 ] } },
    { "type": "Feature", "properties": { "ogc_fid": 141, "name": "Kentish Town West" }, "geometry": { "type": "Point", "coordinates": [ -0.14708, 51.54776 ] } },
    { "type": "Feature", "properties": { "ogc_fid": 142, "name": "Kenton" }, "geometry": { "type": "Point", "coordinates": [ -0.316870809, 51.58173809 ] } },
    { "type": "Feature", "properties": { "ogc_fid": 143, "name": "Kew Gardens" }, "geometry": { "type": "Point", "coordinates": [ -0.284980014, 51.47725641 ] } },
    { "type": "Feature", "properties": { "ogc_fid": 144, "name": "Kilburn" }, "geometry": { "type": "Point", "coordinates": [ -0.205002, 51.5471715 ] } },
    { "type": "Feature", "properties": { "ogc_fid": 145, "name": "Kilburn Park" }, "geometry": { "type": "Point", "coordinates": [ -0.193963023, 51.53495818 ] } },
    { "type": "Feature", "properties": { "ogc_fid": 146, "name": "King's Cross St.Pancras" }, "geometry": { "type": "Point", "coordinates": [ -0.12399, 51.53057 ] } },
    { "type": "Feature", "properties": { "ogc_fid": 147, "name": "King's Cross Thameslink" }, "geometry": { "type": "Point", "coordinates": [ -0.12044, 51.5308 ] } },
    { "type": "Feature", "properties": { "ogc_fid": 148, "name": "Kingsbury" }, "geometry": { "type": "Point", "coordinates": [ -0.2788, 51.58422 ] } },
    { "type": "Feature", "properties": { "ogc_fid": 149, "name": "Knightsbridge" }, "geometry": { "type": "Point", "coordinates": [ -0.1603, 51.50169 ] } },
    { "type": "Feature", "properties": { "ogc_fid": 150, "name": "Ladbroke Grove" }, "geometry": { "type": "Point", "coordinates": [ -0.21114, 51.5173 ] } },
    { "type": "Feature", "properties": { "ogc_fid": 151, "name": "Lambeth North" }, "geometry": { "type": "Point", "coordinates": [ -0.11216, 51.49894 ] } },
    { "type": "Feature", "properties": { "ogc_fid": 152, "name": "Lancaster Gate" }, "geometry": { "type": "Point", "coordinates": [ -0.175067, 51.512083 ] } },
    { "type": "Feature", "properties": { "ogc_fid": 153, "name": "Latimer Road" }, "geometry": { "type": "Point", "coordinates": [ -0.218428, 51.513125 ] } },
    { "type": "Feature", "properties": { "ogc_fid": 154, "name": "Leicester Square" }, "geometry": { "type": "Point", "coordinates": [ -0.12849, 51.51148 ] } },
    { "type": "Feature", "properties": { "ogc_fid": 155, "name": "Leyton" }, "geometry": { "type": "Point", "coordinates": [ -0.005669, 51.556483 ] } },
    { "type": "Feature", "properties": { "ogc_fid": 156, "name": "Leytonstone" }, "geometry": { "type": "Point", "coordinates": [ 0.00739, 51.56828 ] } },
    { "type": "Feature", "properties": { "ogc_fid": 157, "name": "Liverpool Street" }, "geometry": { "type": "Point", "coordinates": [ -0.082458, 51.517675 ] } },
    { "type": "Feature", "properties": { "ogc_fid": 158, "name": "London Bridge" }, "geometry": { "type": "Point", "coordinates": [ -0.084826, 51.505353 ] } },
    { "type": "Feature", "properties": { "ogc_fid": 159, "name": "Loughton" }, "geometry": { "type": "Point", "coordinates": [ 0.05583, 51.6417 ] } },
    { "type": "Feature", "properties": { "ogc_fid": 160, "name": "Maida Vale" }, "geometry": { "type": "Point", "coordinates": [ -0.185888819, 51.52989409 ] } },
    { "type": "Feature", "properties": { "ogc_fid": 161, "name": "Manor House" }, "geometry": { "type": "Point", "coordinates": [ -0.09601, 51.57038 ] } },
    { "type": "Feature", "properties": { "ogc_fid": 162, "name": "Mansion House" }, "geometry": { "type": "Point", "coordinates": [ -0.09397, 51.51256 ] } },
    { "type": "Feature", "properties": { "ogc_fid": 163, "name": "Marble Arch" }, "geometry": { "type": "Point", "coordinates": [ -0.15869195, 51.513597 ] } },
    { "type": "Feature", "properties": { "ogc_fid": 164, "name": "Marylebone" }, "geometry": { "type": "Point", "coordinates": [ -0.162996, 51.52266 ] } },
    { "type": "Feature", "properties": { "ogc_fid": 165, "name": "Mile End" }, "geometry": { "type": "Point", "coordinates": [ -0.033471, 51.525306 ] } },
    { "type": "Feature", "properties": { "ogc_fid": 166, "name": "Mill Hill East" }, "geometry": { "type": "Point", "coordinates": [ -0.20965, 51.60892 ] } },
    { "type": "Feature", "properties": { "ogc_fid": 167, "name": "Monument" }, "geometry": { "type": "Point", "coordinates": [ -0.085991, 51.510165 ] } },
    { "type": "Feature", "properties": { "ogc_fid": 168, "name": "Moor Park" }, "geometry": { "type": "Point", "coordinates": [ -0.432070848, 51.62970512 ] } },
    { "type": "Feature", "properties": { "ogc_fid": 169, "name": "Moorgate" }, "geometry": { "type": "Point", "coordinates": [ -0.08859, 51.51817 ] } },
    { "type": "Feature", "properties": { "ogc_fid": 170, "name": "Morden" }, "geometry": { "type": "Point", "coordinates": [ -0.194599126, 51.40222413 ] } },
    { "type": "Feature", "properties": { "ogc_fid": 171, "name": "Mornington Crescent" }, "geometry": { "type": "Point", "coordinates": [ -0.13901, 51.53427 ] } },
    { "type": "Feature", "properties": { "ogc_fid": 172, "name": "Neasden" }, "geometry": { "type": "Point", "coordinates": [ -0.25042, 51.55427 ] } },
    { "type": "Feature", "properties": { "ogc_fid": 173, "name": "New Cross" }, "geometry": { "type": "Point", "coordinates": [ -0.0338817, 51.477363 ] } },
    { "type": "Feature", "properties": { "ogc_fid": 174, "name": "New Cross Gate" }, "geometry": { "type": "Point", "coordinates": [ -0.04049, 51.47585 ] } },
    { "type": "Feature", "properties": { "ogc_fid": 175, "name": "Newbury Park" }, "geometry": { "type": "Point", "coordinates": [ 0.08927, 51.57565 ] } },
    { "type": "Feature", "properties": { "ogc_fid": 176, "name": "Nine Elms" }, "geometry": { "type": "Point", "coordinates": [ -0.12846, 51.48 ] } },
    { "type": "Feature", "properties": { "ogc_fid": 177, "name": "North Acton" }, "geometry": { "type": "Point", "coordinates": [ -0.26019, 51.5237 ] } },
    { "type": "Feature", "properties": { "ogc_fid": 178, "name": "North Ealing" }, "geometry": { "type": "Point", "coordinates": [ -0.28838, 51.51807 ] } },
    { "type": "Feature", "properties": { "ogc_fid": 179, "name": "North Greenwich" }, "geometry": { "type": "Point", "coordinates": [ 0.0036, 51.50056 ] } },
    { "type": "Feature", "properties": { "ogc_fid": 180, "name": "North Harrow" }, "geometry": { "type": "Point", "coordinates": [ -0.362595264, 51.58503612 ] } },
    { "type": "Feature", "properties": { "ogc_fid": 181, "name": "North Wembley" }, "geometry": { "type": "Point", "coordinates": [ -0.304072648, 51.56258091 ] } },
    { "type": "Feature", "properties": { "ogc_fid": 182, "name": "Northfields" }, "geometry": { "type": "Point", "coordinates": [ -0.313188, 51.499856 ] } },
    { "type": "Feature", "properties": { "ogc_fid": 183, "name": "Northolt" }, "geometry": { "type": "Point", "coordinates": [ -0.368257, 51.548054 ] } },
    { "type": "Feature", "properties": { "ogc_fid": 184, "name": "Northolt" }, "geometry": { "type": "Point", "coordinates": [ -0.36968, 51.548467 ] } },
    { "type": "Feature", "properties": { "ogc_fid": 185, "name": "Northwick Park" }, "geometry": { "type": "Point", "coordinates": [ -0.317857023, 51.57850117 ] } },
    { "type": "Feature", "properties": { "ogc_fid": 186, "name": "Northwood" }, "geometry": { "type": "Point", "coordinates": [ -0.423584422, 51.61098984 ] } },
    { "type": "Feature", "properties": { "ogc_fid": 187, "name": "Northwood Hills" }, "geometry": { "type": "Point", "coordinates": [ -0.408812575, 51.60043795 ] } },
    { "type": "Feature", "properties": { "ogc_fid": 188, "name": "Notting Hill Gate" }, "geometry": { "type": "Point", "coordinates": [ -0.1962847, 51.509028 ] } },
    { "type": "Feature", "properties": { "ogc_fid": 189, "name": "Oakwood" }, "geometry": { "type": "Point", "coordinates": [ -0.13192, 51.64739 ] } },
    { "type": "Feature", "properties": { "ogc_fid": 190, "name": "Old Street" }, "geometry": { "type": "Point", "coordinates": [ -0.08751, 51.52618 ] } },
    { "type": "Feature", "properties": { "ogc_fid": 191, "name": "Osterley" }, "geometry": { "type": "Point", "coordinates": [ -0.35196, 51.481569 ] } },
    { "type": "Feature", "properties": { "ogc_fid": 192, "name": "Oval" }, "geometry": { "type": "Point", "coordinates": [ -0.11284, 51.48214 ] } },
    { "type": "Feature", "properties": { "ogc_fid": 193, "name": "Oxford Circus" }, "geometry": { "type": "Point", "coordinates": [ -0.14119, 51.51517 ] } },
    { "type": "Feature", "properties": { "ogc_fid": 194, "name": "Paddington" }, "geometry": { "type": "Point", "coordinates": [ -0.17553880792, 51.515184655399999 ] } },
    { "type": "Feature", "properties": { "ogc_fid": 195, "name": "Paddington (H&C Line)" }, "geometry": { "type": "Point", "coordinates": [ -0.176968859, 51.519096707 ] } },
    { "type": "Feature", "properties": { "ogc_fid": 196, "name": "Park Royal" }, "geometry": { "type": "Point", "coordinates": [ -0.28417, 51.52671 ] } },
    { "type": "Feature", "properties": { "ogc_fid": 197, "name": "Parsons Green" }, "geometry": { "type": "Point", "coordinates": [ -0.20205, 51.47488 ] } },
    { "type": "Feature", "properties": { "ogc_fid": 198, "name": "Perivale" }, "geometry": { "type": "Point", "coordinates": [ -0.32391, 51.536673 ] } },
    { "type": "Feature", "properties": { "ogc_fid": 199, "name": "Piccadilly Circus" }, "geometry": { "type": "Point", "coordinates": [ -0.13392, 51.51022 ] } },
    { "type": "Feature", "properties": { "ogc_fid": 200, "name": "Pimlico" }, "geometry": { "type": "Point", "coordinates": [ -0.133037, 51.489081 ] } },
    { "type": "Feature", "properties": { "ogc_fid": 201, "name": "Pinner" }, "geometry": { "type": "Point", "coordinates": [ -0.380539158, 51.59270271 ] } },
    { "type": "Feature", "properties": { "ogc_fid": 202, "name": "Plaistow" }, "geometry": { "type": "Point", "coordinates": [ 0.01659, 51.53122 ] } },
    { "type": "Feature", "properties": { "ogc_fid": 203, "name": "Preston Road" }, "geometry": { "type": "Point", "coordinates": [ -0.295813875, 51.57229051 ] } },
    { "type": "Feature", "properties": { "ogc_fid": 204, "name": "Putney Bridge" }, "geometry": { "type": "Point", "coordinates": [ -0.2088141, 51.46868 ] } },
    { "type": "Feature", "properties": { "ogc_fid": 205, "name": "Queen's Park" }, "geometry": { "type": "Point", "coordinates": [ -0.205257721, 51.534179 ] } },
    { "type": "Feature", "properties": { "ogc_fid": 206, "name": "Queensbury" }, "geometry": { "type": "Point", "coordinates": [ -0.28655, 51.59437 ] } },
    { "type": "Feature", "properties": { "ogc_fid": 207, "name": "Queensway" }, "geometry": { "type": "Point", "coordinates": [ -0.18705, 51.510484 ] } },
    { "type": "Feature", "properties": { "ogc_fid": 208, "name": "Ravenscourt Park" }, "geometry": { "type": "Point", "coordinates": [ -0.2356, 51.49419 ] } },
    { "type": "Feature", "properties": { "ogc_fid": 209, "name": "Rayners Lane" }, "geometry": { "type": "Point", "coordinates": [ -0.3724, 51.57534 ] } },
    { "type": "Feature", "properties": { "ogc_fid": 210, "name": "Redbridge" }, "geometry": { "type": "Point", "coordinates": [ 0.04542, 51.57618 ] } },
    { "type": "Feature", "properties": { "ogc_fid": 211, "name": "Regent's Park" }, "geometry": { "type": "Point", "coordinates": [ -0.14713, 51.52344 ] } },
    { "type": "Feature", "properties": { "ogc_fid": 212, "name": "Richmond" }, "geometry": { "type": "Point", "coordinates": [ -0.302033247, 51.46343247 ] } },
    { "type": "Feature", "properties": { "ogc_fid": 213, "name": "Richmond" }, "geometry": { "type": "Point", "coordinates": [ -0.300618047, 51.4632474 ] } },
    { "type": "Feature", "properties": { "ogc_fid": 214, "name": "Rickmansworth" }, "geometry": { "type": "Point", "coordinates": [ -0.473521454, 51.64027898 ] } },
    { "type": "Feature", "properties": { "ogc_fid": 215, "name": "Roding Valley" }, "geometry": { "type": "Point", "coordinates": [ 0.04264, 51.61691 ] } },
    { "type": "Feature", "properties": { "ogc_fid": 216, "name": "Rotherhithe" }, "geometry": { "type": "Point", "coordinates": [ -0.05211, 51.50089 ] } },
    { "type": "Feature", "properties": { "ogc_fid": 217, "name": "Royal Oak" }, "geometry": { "type": "Point", "coordinates": [ -0.187785, 51.519383 ] } },
    { "type": "Feature", "properties": { "ogc_fid": 218, "name": "Ruislip" }, "geometry": { "type": "Point", "coordinates": [ -0.42157, 51.57146 ] } },
    { "type": "Feature", "properties": { "ogc_fid": 219, "name": "Ruislip Gardens" }, "geometry": { "type": "Point", "coordinates": [ -0.410587, 51.560711 ] } },
    { "type": "Feature", "properties": { "ogc_fid": 220, "name": "Ruislip Manor" }, "geometry": { "type": "Point", "coordinates": [ -0.41185, 51.57349 ] } },
    { "type": "Feature", "properties": { "ogc_fid": 221, "name": "Russell Square" }, "geometry": { "type": "Point", "coordinates": [ -0.124336, 51.523243 ] } },
    { "type": "Feature", "properties": { "ogc_fid": 222, "name": "St.James's Park" }, "geometry": { "type": "Point", "coordinates": [ -0.13394, 51.49971 ] } },
    { "type": "Feature", "properties": { "ogc_fid": 223, "name": "Seven Sisters" }, "geometry": { "type": "Point", "coordinates": [ -0.07495, 51.58318 ] } },
    { "type": "Feature", "properties": { "ogc_fid": 224, "name": "Shadwell" }, "geometry": { "type": "Point", "coordinates": [ -0.05693, 51.51115 ] } },
    { "type": "Feature", "properties": { "ogc_fid": 225, "name": "Shepherd's Bush" }, "geometry": { "type": "Point", "coordinates": [ -0.21881, 51.50474 ] } },
    { "type": "Feature", "properties": { "ogc_fid": 226, "name": "Shepherd's Bush Market" }, "geometry": { "type": "Point", "coordinates": [ -0.226231, 51.506063 ] } },
    { "type": "Feature", "properties": { "ogc_fid": 227, "name": "Sloane Square" }, "geometry": { "type": "Point", "coordinates": [ -0.156090904, 51.49258474 ] } },
    { "type": "Feature", "properties": { "ogc_fid": 228, "name": "Snaresbrook" }, "geometry": { "type": "Point", "coordinates": [ 0.02133, 51.58002 ] } },
    { "type": "Feature", "properties": { "ogc_fid": 229, "name": "South Acton" }, "geometry": { "type": "Point", "coordinates": [ -0.270187631, 51.49960784 ] } },
    { "type": "Feature", "properties": { "ogc_fid": 230, "name": "South Ealing" }, "geometry": { "type": "Point", "coordinates": [ -0.307856, 51.500801 ] } },
    { "type": "Feature", "properties": { "ogc_fid": 231, "name": "South Harrow" }, "geometry": { "type": "Point", "coordinates": [ -0.3521, 51.56461 ] } },
    { "type": "Feature", "properties": { "ogc_fid": 232, "name": "South Kensington" }, "geometry": { "type": "Point", "coordinates": [ -0.172791, 51.494066 ] } },
    { "type": "Feature", "properties": { "ogc_fid": 233, "name": "South Kenton" }, "geometry": { "type": "Point", "coordinates": [ -0.308566354, 51.57044666 ] } },
    { "type": "Feature", "properties": { "ogc_fid": 234, "name": "South Ruislip" }, "geometry": { "type": "Point", "coordinates": [ -0.398708, 51.556795 ] } },
    { "type": "Feature", "properties": { "ogc_fid": 235, "name": "South Wimbledon" }, "geometry": { "type": "Point", "coordinates": [ -0.192262754, 51.41543048 ] } },
    { "type": "Feature", "properties": { "ogc_fid": 236, "name": "South Woodford" }, "geometry": { "type": "Point", "coordinates": [ 0.02726, 51.59088 ] } },
    { "type": "Feature", "properties": { "ogc_fid": 237, "name": "Southfields" }, "geometry": { "type": "Point", "coordinates": [ -0.206466, 51.444941 ] } },
    { "type": "Feature", "properties": { "ogc_fid": 238, "name": "Southgate" }, "geometry": { "type": "Point", "coordinates": [ -0.12765, 51.6324 ] } },
    { "type": "Feature", "properties": { "ogc_fid": 239, "name": "Southwark" }, "geometry": { "type": "Point", "coordinates": [ -0.10478, 51.50384 ] } },
    { "type": "Feature", "properties": { "ogc_fid": 240, "name": "St.John's Wood" }, "geometry": { "type": "Point", "coordinates": [ -0.17428, 51.53472 ] } },
    { "type": "Feature", "properties": { "ogc_fid": 241, "name": "St.Paul's" }, "geometry": { "type": "Point", "coordinates": [ -0.097598, 51.515285 ] } },
    { "type": "Feature", "properties": { "ogc_fid": 242, "name": "Stamford Brook" }, "geometry": { "type": "Point", "coordinates": [ -0.24619, 51.494935 ] } },
    { "type": "Feature", "properties": { "ogc_fid": 243, "name": "Stanmore" }, "geometry": { "type": "Point", "coordinates": [ -0.30241, 51.61895 ] } },
    { "type": "Feature", "properties": { "ogc_fid": 244, "name": "Stepney Green" }, "geometry": { "type": "Point", "coordinates": [ -0.046546, 51.521884 ] } },
    { "type": "Feature", "properties": { "ogc_fid": 245, "name": "Stockwell" }, "geometry": { "type": "Point", "coordinates": [ -0.1227, 51.47224 ] } },
    { "type": "Feature", "properties": { "ogc_fid": 246, "name": "Stonebridge Park" }, "geometry": { "type": "Point", "coordinates": [ -0.275978856, 51.54402388 ] } },
    { "type": "Feature", "properties": { "ogc_fid": 247, "name": "Stratford" }, "geometry": { "type": "Point", "coordinates": [ -0.003776, 51.541208 ] } },
    { "type": "Feature", "properties": { "ogc_fid": 248, "name": "Stratford" }, "geometry": { "type": "Point", "coordinates": [ -0.002675, 51.541146 ] } },
    { "type": "Feature", "properties": { "ogc_fid": 249, "name": "Sudbury Hill" }, "geometry": { "type": "Point", "coordinates": [ -0.335949, 51.556998 ] } },
    { "type": "Feature", "properties": { "ogc_fid": 250, "name": "Sudbury Town" }, "geometry": { "type": "Point", "coordinates": [ -0.31598, 51.55093 ] } },
    { "type": "Feature", "properties": { "ogc_fid": 251, "name": "Surrey Quays" }, "geometry": { "type": "Point", "coordinates": [ -0.04816, 51.49365 ] } },
    { "type": "Feature", "properties": { "ogc_fid": 252, "name": "Swiss Cottage" }, "geometry": { "type": "Point", "coordinates": [ -0.17436, 51.54333 ] } },
    { "type": "Feature", "properties": { "ogc_fid": 253, "name": "Temple" }, "geometry": { "type": "Point", "coordinates": [ -0.11341, 51.51114 ] } },
    { "type": "Feature", "properties": { "ogc_fid": 254, "name": "Theydon Bois" }, "geometry": { "type": "Point", "coordinates": [ 0.10354, 51.67246 ] } },
    { "type": "Feature", "properties": { "ogc_fid": 255, "name": "Tooting Bec" }, "geometry": { "type": "Point", "coordinates": [ -0.159635693, 51.43578971 ] } },
    { "type": "Feature", "properties": { "ogc_fid": 256, "name": "Tooting Broadway" }, "geometry": { "type": "Point", "coordinates": [ -0.167910811, 51.42780008 ] } },
    { "type": "Feature", "properties": { "ogc_fid": 257, "name": "Tottenham Court Road" }, "geometry": { "type": "Point", "coordinates": [ -0.13027, 51.5164 ] } },
    { "type": "Feature", "properties": { "ogc_fid": 258, "name": "Tottenham Court Road" }, "geometry": { "type": "Point", "coordinates": [ -0.13093911, 51.51672074 ] } },
    { "type": "Feature", "properties": { "ogc_fid": 259, "name": "Tottenham Hale" }, "geometry": { "type": "Point", "coordinates": [ -0.059808, 51.588878 ] } },
    { "type": "Feature", "properties": { "ogc_fid": 260, "name": "Totteridge & Whetstone" }, "geometry": { "type": "Point", "coordinates": [ -0.17917, 51.63022 ] } },
    { "type": "Feature", "properties": { "ogc_fid": 261, "name": "Tower Hill" }, "geometry": { "type": "Point", "coordinates": [ -0.076813, 51.50991 ] } },
    { "type": "Feature", "properties": { "ogc_fid": 262, "name": "Tufnell Park" }, "geometry": { "type": "Point", "coordinates": [ -0.13813, 51.55663 ] } },
    { "type": "Feature", "properties": { "ogc_fid": 263, "name": "Turnham Green" }, "geometry": { "type": "Point", "coordinates": [ -0.25406, 51.495143 ] } },
    { "type": "Feature", "properties": { "ogc_fid": 264, "name": "Turnpike Lane" }, "geometry": { "type": "Point", "coordinates": [ -0.10308, 51.59031 ] } },
    { "type": "Feature", "properties": { "ogc_fid": 265, "name": "Upminster" }, "geometry": { "type": "Point", "coordinates": [ 0.25177, 51.55925 ] } },
    { "type": "Feature", "properties": { "ogc_fid": 266, "name": "Upminster Bridge" }, "geometry": { "type": "Point", "coordinates": [ 0.23509, 51.55847 ] } },
    { "type": "Feature", "properties": { "ogc_fid": 267, "name": "Upney" }, "geometry": { "type": "Point", "coordinates": [ 0.09998, 51.53824 ] } },
    { "type": "Feature", "properties": { "ogc_fid": 268, "name": "Upton Park" }, "geometry": { "type": "Point", "coordinates": [ 0.03373, 51.53514 ] } },
    { "type": "Feature", "properties": { "ogc_fid": 269, "name": "Uxbridge" }, "geometry": { "type": "Point", "coordinates": [ -0.47725, 51.54687 ] } },
    { "type": "Feature", "properties": { "ogc_fid": 270, "name": "Vauxhall" }, "geometry": { "type": "Point", "coordinates": [ -0.12369, 51.48603 ] } },
    { "type": "Feature", "properties": { "ogc_fid": 271, "name": "Victoria" }, "geometry": { "type": "Point", "coordinates": [ -0.14400853, 51.49662869 ] } },
    { "type": "Feature", "properties": { "ogc_fid": 272, "name": "Walthamstow Central" }, "geometry": { "type": "Point", "coordinates": [ -0.01996, 51.58293 ] } },
    { "type": "Feature", "properties": { "ogc_fid": 273, "name": "Wanstead" }, "geometry": { "type": "Point", "coordinates": [ 0.02864, 51.57565 ] } },
    { "type": "Feature", "properties": { "ogc_fid": 274, "name": "Wapping" }, "geometry": { "type": "Point", "coordinates": [ -0.05607, 51.50451 ] } },
    { "type": "Feature", "properties": { "ogc_fid": 275, "name": "Warren Street" }, "geometry": { "type": "Point", "coordinates": [ -0.1381, 51.5245 ] } },
    { "type": "Feature", "properties": { "ogc_fid": 276, "name": "Warwick Avenue" }, "geometry": { "type": "Point", "coordinates": [ -0.183777837, 51.52329728 ] } },
    { "type": "Feature", "properties": { "ogc_fid": 277, "name": "Waterloo" }, "geometry": { "type": "Point", "coordinates": [ -0.11328, 51.50322 ] } },
    { "type": "Feature", "properties": { "ogc_fid": 278, "name": "Watford" }, "geometry": { "type": "Point", "coordinates": [ -0.41745306, 51.65741058 ] } },
    { "type": "Feature", "properties": { "ogc_fid": 279, "name": "Wembley Central" }, "geometry": { "type": "Point", "coordinates": [ -0.29577538, 51.55122817 ] } },
    { "type": "Feature", "properties": { "ogc_fid": 280, "name": "Wembley Park" }, "geometry": { "type": "Point", "coordinates": [ -0.279770242, 51.56355598 ] } },
    { "type": "Feature", "properties": { "ogc_fid": 281, "name": "West Acton" }, "geometry": { "type": "Point", "coordinates": [ -0.28064, 51.51818 ] } },
    { "type": "Feature", "properties": { "ogc_fid": 282, "name": "West Brompton" }, "geometry": { "type": "Point", "coordinates": [ -0.19475, 51.48681 ] } },
    { "type": "Feature", "properties": { "ogc_fid": 283, "name": "West Finchley" }, "geometry": { "type": "Point", "coordinates": [ -0.188711152265457, 51.609222812189998 ] } },
    { "type": "Feature", "properties": { "ogc_fid": 284, "name": "West Ham" }, "geometry": { "type": "Point", "coordinates": [ 0.004141, 51.527917 ] } },
    { "type": "Feature", "properties": { "ogc_fid": 285, "name": "West Hampstead" }, "geometry": { "type": "Point", "coordinates": [ -0.191016868, 51.54678865 ] } },
    { "type": "Feature", "properties": { "ogc_fid": 286, "name": "West Hampstead" }, "geometry": { "type": "Point", "coordinates": [ -0.19055, 51.54657 ] } },
    { "type": "Feature", "properties": { "ogc_fid": 287, "name": "West Hampstead" }, "geometry": { "type": "Point", "coordinates": [ -0.190999685, 51.54755518 ] } },
    { "type": "Feature", "properties": { "ogc_fid": 288, "name": "West Hampstead" }, "geometry": { "type": "Point", "coordinates": [ -0.19275, 51.54716 ] } },
    { "type": "Feature", "properties": { "ogc_fid": 289, "name": "West Harrow" }, "geometry": { "type": "Point", "coordinates": [ -0.353144584, 51.5795432 ] } },
    { "type": "Feature", "properties": { "ogc_fid": 290, "name": "West Kensington" }, "geometry": { "type": "Point", "coordinates": [ -0.20532, 51.49085 ] } },
    { "type": "Feature", "properties": { "ogc_fid": 291, "name": "West Ruislip" }, "geometry": { "type": "Point", "coordinates": [ -0.43674, 51.569324 ] } },
    { "type": "Feature", "properties": { "ogc_fid": 292, "name": "Westbourne Park" }, "geometry": { "type": "Point", "coordinates": [ -0.201778, 51.520995 ] } },
    { "type": "Feature", "properties": { "ogc_fid": 293, "name": "Westminster" }, "geometry": { "type": "Point", "coordinates": [ -0.12489, 51.50121 ] } },
    { "type": "Feature", "properties": { "ogc_fid": 294, "name": "White City" }, "geometry": { "type": "Point", "coordinates": [ -0.224226, 51.512206 ] } },
    { "type": "Feature", "properties": { "ogc_fid": 295, "name": "Whitechapel" }, "geometry": { "type": "Point", "coordinates": [ -0.05951, 51.51946 ] } },
    { "type": "Feature", "properties": { "ogc_fid": 296, "name": "Willesden Green" }, "geometry": { "type": "Point", "coordinates": [ -0.22106, 51.54919 ] } },
    { "type": "Feature", "properties": { "ogc_fid": 297, "name": "Willesden Junction" }, "geometry": { "type": "Point", "coordinates": [ -0.24235, 51.53181 ] } },
    { "type": "Feature", "properties": { "ogc_fid": 298, "name": "Willesden Junction" }, "geometry": { "type": "Point", "coordinates": [ -0.229378995, 51.53032031 ] } },
    { "type": "Feature", "properties": { "ogc_fid": 299, "name": "Wimbledon" }, "geometry": { "type": "Point", "coordinates": [ -0.20544, 51.422 ] } },
    { "type": "Feature", "properties": { "ogc_fid": 300, "name": "Wimbledon Park" }, "geometry": { "type": "Point", "coordinates": [ -0.19864, 51.43391 ] } },
    { "type": "Feature", "properties": { "ogc_fid": 301, "name": "Wood Green" }, "geometry": { "type": "Point", "coordinates": [ -0.10939, 51.59709 ] } },
    { "type": "Feature", "properties": { "ogc_fid": 302, "name": "Woodford" }, "geometry": { "type": "Point", "coordinates": [ 0.03328, 51.60582 ] } },
    { "type": "Feature", "properties": { "ogc_fid": 303, "name": "Woodside Park" }, "geometry": { "type": "Point", "coordinates": [ -0.185578887883903, 51.618171729588703 ] } }
    ]
}